[
  {
    "id": "1",
    "name": "Angel Stadium of Anaheim",
    "location": "Anaheim",
    "venue_w_chan_loc": "USCA0027",
    "city": "Anaheim",
    "state": "CA",
    "longitude": -117.882685,
    "latitude": 33.80029,
    "altitude": 154
  },
  {
    "id": "2",
    "name": "Oriole Park at Camden Yards",
    "location": "Baltimore",
    "venue_w_chan_loc": "USMD0018",
    "city": "Baltimore",
    "state": "MD",
    "longitude": -76.621572,
    "latitude": 39.283944,
    "altitude": 35
  },
  {
    "id": "3",
    "name": "Fenway Park",
    "location": "Boston",
    "venue_w_chan_loc": "USMA0046",
    "city": "Boston",
    "state": "MA",
    "longitude": -71.097337,
    "latitude": 42.346561,
    "altitude": 16
  },
  {
    "id": "4",
    "name": "U.S. Cellular Field",
    "location": "Chicago",
    "venue_w_chan_loc": "USIL0225",
    "city": "Chicago",
    "state": "IL",
    "longitude": -87.633703,
    "latitude": 41.829892,
    "altitude": 599
  },
  {
    "id": "5",
    "name": "Progressive Field",
    "location": "Cleveland",
    "venue_w_chan_loc": "USOH0195",
    "city": "Cleveland",
    "state": "OH",
    "longitude": -81.685326,
    "latitude": 41.496005,
    "altitude": 673
  },
  {
    "id": "7",
    "name": "Kauffman Stadium",
    "location": "Kansas City",
    "venue_w_chan_loc": "USMO0460",
    "city": "Kansas City",
    "state": "MO",
    "longitude": -94.480149,
    "latitude": 39.051604,
    "altitude": 886
  },
  {
    "id": "10",
    "name": "O.co Coliseum",
    "location": "Oakland",
    "venue_w_chan_loc": "USCA0791",
    "city": "Oakland",
    "state": "CA",
    "longitude": -122.200451,
    "latitude": 37.751619,
    "altitude": 0
  },
  {
    "id": "12",
    "name": "Tropicana Field",
    "location": "St. Petersburg",
    "venue_w_chan_loc": "USFL0438",
    "city": "St. Petersburg",
    "state": "FL",
    "longitude": -82.653431,
    "latitude": 27.768254,
    "altitude": 41
  },
  {
    "id": "13",
    "name": "Globe Life Park in Arlington",
    "location": "Arlington",
    "venue_w_chan_loc": "USTX0045",
    "city": "Arlington",
    "state": "TX",
    "longitude": -97.082546,
    "latitude": 32.751164,
    "altitude": 549
  },
  {
    "id": "14",
    "name": "Rogers Centre",
    "location": "Toronto",
    "venue_w_chan_loc": "CAXX0504",
    "city": "Toronto",
    "state": "ONT",
    "longitude": -79.389054,
    "latitude": 43.641256,
    "altitude": 268
  },
  {
    "id": "15",
    "name": "Chase Field",
    "location": "Phoenix",
    "venue_w_chan_loc": "USAZ0166",
    "city": "Phoenix",
    "state": "AZ",
    "longitude": -112.066793,
    "latitude": 33.44542,
    "altitude": 1059
  },
  {
    "id": "16",
    "name": "Turner Field",
    "location": "Atlanta",
    "venue_w_chan_loc": "USGA0028",
    "city": "Atlanta",
    "state": "GA",
    "longitude": -84.389464,
    "latitude": 33.735487,
    "altitude": 939
  },
  {
    "id": "17",
    "name": "Wrigley Field",
    "location": "Chicago",
    "venue_w_chan_loc": "USIL0225",
    "city": "Chicago",
    "state": "IL",
    "longitude": -87.655397,
    "latitude": 41.948314,
    "altitude": 594
  },
  {
    "id": "19",
    "name": "Coors Field",
    "location": "Denver",
    "venue_w_chan_loc": "USCO0105",
    "city": "Denver",
    "state": "CO",
    "longitude": -104.99413,
    "latitude": 39.756175,
    "altitude": 5197
  },
  {
    "id": "22",
    "name": "Dodger Stadium",
    "location": "Los Angeles",
    "venue_w_chan_loc": "USCA0638",
    "city": "Los Angeles",
    "state": "CA",
    "longitude": -118.239951,
    "latitude": 34.073878,
    "altitude": 501
  },
  {
    "id": "31",
    "name": "PNC Park",
    "location": "Pittsburgh",
    "venue_w_chan_loc": "USPA1290",
    "city": "Pittsburgh",
    "state": "PA",
    "longitude": -80.005683,
    "latitude": 40.446835,
    "altitude": 724
  },
  {
    "id": "32",
    "name": "Miller Park",
    "location": "Milwaukee",
    "venue_w_chan_loc": "USWI0455",
    "city": "Milwaukee",
    "state": "WI",
    "longitude": -87.970966,
    "latitude": 43.028232,
    "altitude": 602
  },
  {
    "id": "680",
    "name": "Safeco Field",
    "location": "Seattle",
    "venue_w_chan_loc": "USWA0395",
    "city": "Seattle",
    "state": "WA",
    "longitude": -122.332283,
    "latitude": 47.591443,
    "altitude": 17
  },
  {
    "id": "2392",
    "name": "Minute Maid Park",
    "location": "Houston",
    "venue_w_chan_loc": "USTX0617",
    "city": "Houston",
    "state": "TX",
    "longitude": -95.355429,
    "latitude": 29.757041,
    "altitude": 20
  },
  {
    "id": "2394",
    "name": "Comerica Park",
    "location": "Detroit",
    "venue_w_chan_loc": "USMI0229",
    "city": "Detroit",
    "state": "MI",
    "longitude": -83.048627,
    "latitude": 42.339063,
    "altitude": 602
  },
  {
    "id": "2395",
    "name": "AT&T Park",
    "location": "San Francisco",
    "venue_w_chan_loc": "USCA0987",
    "city": "San Francisco",
    "state": "CA",
    "longitude": -122.389221,
    "latitude": 37.778324,
    "altitude": 8
  },
  {
    "id": "2602",
    "name": "Great American Ball Park",
    "location": "Cincinnati",
    "venue_w_chan_loc": "USOH0188",
    "city": "Cincinnati",
    "state": "OH",
    "longitude": -84.506483,
    "latitude": 39.097213,
    "altitude": 489
  },
  {
    "id": "2680",
    "name": "Petco Park",
    "location": "San Diego",
    "venue_w_chan_loc": "USCA0982",
    "city": "San Diego",
    "state": "CA",
    "longitude": -117.157056,
    "latitude": 32.70753,
    "altitude": 14
  },
  {
    "id": "2681",
    "name": "Citizens Bank Park",
    "location": "Philadelphia",
    "venue_w_chan_loc": "USPA1276",
    "city": "Philadelphia",
    "state": "PA",
    "longitude": -75.166485,
    "latitude": 39.906109,
    "altitude": 19
  },
  {
    "id": "2889",
    "name": "Busch Stadium",
    "location": "St. Louis",
    "venue_w_chan_loc": "USMO0787",
    "city": "St. Louis",
    "state": "MO",
    "longitude": -90.192841,
    "latitude": 38.622622,
    "altitude": 438
  },
  {
    "id": "3289",
    "name": "Citi Field",
    "location": "Flushing",
    "venue_w_chan_loc": "USNY0504",
    "city": "New York",
    "state": "NY",
    "longitude": -73.84584,
    "latitude": 40.757134,
    "altitude": 13
  },
  {
    "id": "3309",
    "name": "Nationals Park",
    "location": "Washington",
    "venue_w_chan_loc": "USDC0001",
    "city": "Washington",
    "state": "DC",
    "longitude": -77.007435,
    "latitude": 38.872987,
    "altitude": 23
  },
  {
    "id": "3312",
    "name": "Target Field",
    "location": "Minneapolis",
    "venue_w_chan_loc": "USMN0503",
    "city": "Minneapolis",
    "state": "MN",
    "longitude": -93.278026,
    "latitude": 44.981749,
    "altitude": 840
  },
  {
    "id": "3313",
    "name": "Yankee Stadium",
    "location": "Bronx",
    "venue_w_chan_loc": "USNY0172",
    "city": "New York",
    "state": "NY",
    "longitude": -73.926413,
    "latitude": 40.829586,
    "altitude": 11
  },
  {
    "id": "4169",
    "name": "Marlins Park",
    "location": "Miami",
    "venue_w_chan_loc": "USFL0316",
    "city": "Miami",
    "state": "FL",
    "longitude": -80.219541,
    "latitude": 25.778165,
    "altitude": 6
  }
]